{"d":{"Columns":{"ID":{"Name":"ID","MajorDataType":"Numeric"},"Country":{"Name":"Country","MajorDataType":"String"},"City":{"Name":"City","MajorDataType":"String"},"Latitude":{"Name":"Latitude","MajorDataType":"Numeric"},"Longitude":{"Name":"Longitude","MajorDataType":"Numeric"}},"Rows":[{"ID":"0","Country":"United States","City":"New York","Latitude":"40.714","Longitude":"-74.006"},{"ID":"1","Country":"United States","City":"Los Angeles","Latitude":"34.052","Longitude":"-118.244"},{"ID":"2","Country":"United States","City":"Chicago","Latitude":"41.85","Longitude":"-87.65"},{"ID":"3","Country":"United States","City":"Houston","Latitude":"29.763","Longitude":"-95.363"},{"ID":"4","Country":"United Kingdom","City":"London","Latitude":"51.509","Longitude":"-0.126"},{"ID":"5","Country":"United Kingdom","City":"Birmingham","Latitude":"52.481","Longitude":"-1.9"},{"ID":"6","Country":"United Kingdom","City":"Glasgow","Latitude":"55.865","Longitude":"-4.258"},{"ID":"7","Country":"United Kingdom","City":"Liverpool","Latitude":"53.411","Longitude":"-2.978"},{"ID":"8","Country":"China","City":"Shanghai","Latitude":"31.222","Longitude":"121.458"},{"ID":"9","Country":"China","City":"Beijing","Latitude":"39.907","Longitude":"116.397"},{"ID":"10","Country":"China","City":"Tianjin","Latitude":"39.142","Longitude":"117.177"},{"ID":"11","Country":"China","City":"Guangzhou","Latitude":"23.117","Longitude":"113.25"},{"ID":"12","Country":"Japan","City":"Tokyo","Latitude":"35.69","Longitude":"139.692"},{"ID":"13","Country":"Japan","City":"Yokohama","Latitude":"35.448","Longitude":"139.642"},{"ID":"14","Country":"Japan","City":"Osaka","Latitude":"34.694","Longitude":"135.502"},{"ID":"15","Country":"Japan","City":"Nagoya","Latitude":"35.181","Longitude":"136.906"},{"ID":"16","Country":"Philippines","City":"Metro Manila","Latitude":"14.604","Longitude":"120.982"},{"ID":"17","Country":"Philippines","City":"Davao City","Latitude":"7.073","Longitude":"125.613"},{"ID":"18","Country":"Philippines","City":"Cebu City","Latitude":"10.317","Longitude":"123.891"},{"ID":"19","Country":"India","City":"Mumbai","Latitude":"19.073","Longitude":"72.883"},{"ID":"20","Country":"India","City":"Delhi","Latitude":"28.654","Longitude":"77.229"},{"ID":"21","Country":"India","City":"Bangalore","Latitude":"12.972","Longitude":"77.594"},{"ID":"22","Country":"India","City":"Kolkata","Latitude":"22.563","Longitude":"88.363"}]}}